,City,Lat,Lng,Max Temp,Humidity,Cloudiness,Wind Speed,Country,Date
0,luderitz,-26.65,15.16,284.15,100,0,2.1,NA,1595917686
1,vanimo,-2.67,141.3,302.16,69,29,3.12,PG,1595917686
2,ushuaia,-54.8,-68.3,273.15,93,90,12.3,AR,1595917516
3,muriti,-1.98,32.92,293.15,60,7,2.6,TZ,1595917687
4,taoudenni,22.68,-3.98,304.93,45,31,5.16,ML,1595917687
5,fortuna,40.6,-124.16,286.48,92,79,1.98,US,1595917688
6,codrington,-38.27,141.97,285.51,78,73,1.48,AU,1595917688
7,chubbuck,42.92,-112.47,299.15,27,1,3.6,US,1595917688
8,albany,42.6,-73.97,297.59,79,33,0.89,US,1595917635
9,baykit,61.67,96.37,295.73,48,81,0.85,RU,1595917689
10,rikitea,-23.12,-134.97,295.43,84,83,9.7,PF,1595917689
11,mazamet,43.49,2.37,295.15,73,47,5.1,FR,1595917689
12,saskylakh,71.92,114.08,288.85,49,41,3.96,RU,1595917690
13,maumere,-8.62,122.21,299.9,63,39,4.32,ID,1595917690
14,anastacio,-20.48,-55.81,294.03,55,0,1.47,BR,1595917690
15,itoman,26.12,127.67,305.15,66,40,5.7,JP,1595917690
16,butaritari,3.07,172.79,301.7,77,100,5.77,KI,1595917691
17,nome,64.5,-165.41,283.15,93,90,8.7,US,1595917653
18,nikolskoye,59.7,30.79,295.93,60,77,3.0,RU,1595917692
19,thompson,55.74,-97.86,286.15,87,90,1.5,CA,1595917692
20,tuatapere,-46.13,167.68,280.93,85,100,1.79,NZ,1595917692
21,new norfolk,-42.78,147.06,284.26,85,24,0.47,AU,1595917692
22,yakima,46.47,-120.67,300.15,40,1,4.1,US,1595917692
23,general roca,-39.03,-67.58,275.15,74,0,2.1,AR,1595917693
24,standish,43.98,-83.96,292.04,93,1,2.94,US,1595917693
25,qaanaaq,77.48,-69.36,276.86,74,0,0.11,GL,1595917693
26,arraial do cabo,-22.97,-42.03,294.88,83,0,10.95,BR,1595917694
27,saint-denis,48.92,2.33,292.15,59,20,3.6,FR,1595917694
28,hilo,19.73,-155.09,300.15,61,90,2.5,US,1595917694
29,lamar,33.67,-95.58,297.15,88,1,2.1,US,1595917694
30,romitan,39.93,64.38,311.15,16,0,3.1,UZ,1595917695
31,nuuk,64.18,-51.72,280.15,93,100,8.2,GL,1595917695
32,latung,5.5,120.88,301.93,71,98,2.51,PH,1595917695
33,nakhon phanom,17.41,104.78,304.26,83,75,1.5,TH,1595917696
34,busselton,-33.65,115.33,290.93,71,93,5.32,AU,1595917696
35,hualmay,-11.1,-77.61,287.67,85,85,2.53,PE,1595917696
36,klaksvik,62.23,-6.59,281.15,93,98,11.8,FO,1595917696
37,hambantota,6.12,81.12,302.15,83,90,4.1,LK,1595917697
38,saint-philippe,-21.36,55.77,296.15,78,96,6.7,RE,1595917697
39,saint pete beach,27.73,-82.74,299.15,88,1,1.79,US,1595917697
40,torbay,47.67,-52.73,286.48,100,90,4.1,CA,1595917698
41,san patricio,19.22,-104.7,298.75,81,98,1.74,MX,1595917698
42,polevskoy,56.44,60.19,293.15,52,20,5.0,RU,1595917698
43,punta arenas,-53.15,-70.92,276.15,80,67,7.2,CL,1595917698
44,hermanus,-34.42,19.23,280.93,93,13,0.45,ZA,1595917699
45,bambous virieux,-20.34,57.76,297.15,73,75,4.1,MU,1595917699
46,iqaluit,63.75,-68.51,287.15,76,75,4.1,CA,1595917611
47,avarua,-21.21,-159.78,295.15,73,57,3.6,CK,1595917700
48,maningrida,-12.07,134.27,302.67,34,98,3.69,AU,1595917700
49,krasnoselkup,65.7,82.47,290.4,59,88,6.86,RU,1595917700
50,buala,-8.14,159.59,302.3,73,53,3.43,SB,1595917701
51,lokosovo,61.13,74.82,288.59,47,97,3.3,RU,1595917701
52,kupang,-10.17,123.58,304.15,40,40,8.2,ID,1595917677
53,cuauhtemoc,28.42,-106.87,291.22,75,7,1.94,MX,1595917702
54,nhulunbuy,-12.23,136.77,299.15,57,40,7.7,AU,1595917702
55,phan thiet,10.93,108.1,304.79,64,76,5.18,VN,1595917624
56,asau,46.43,26.4,296.48,77,19,2.1,RO,1595917702
57,bredasdorp,-34.53,20.04,282.15,100,15,1.5,ZA,1595917703
58,san quintin,30.48,-115.95,291.72,88,1,4.81,MX,1595917703
59,guerrero negro,27.98,-114.06,292.61,87,0,6.16,MX,1595917703
60,vaini,-21.2,-175.2,295.15,78,40,6.2,TO,1595917703
61,nouadhibou,20.93,-17.03,295.15,88,0,2.6,MR,1595917704
62,kalmar,56.66,16.36,291.15,82,94,5.1,SE,1595917704
63,lakatoro,-16.1,167.42,298.15,94,75,0.5,VU,1595917704
64,porto santo,33.07,-16.34,294.15,73,40,5.1,PT,1595917704
65,novyy urgal,51.07,132.56,304.19,46,57,1.16,RU,1595917705
66,ulaangom,49.98,92.07,287.99,81,100,1.71,MN,1595917705
67,hobart,-42.88,147.33,284.82,71,75,1.0,AU,1595917689
68,cherskiy,68.75,161.3,281.36,54,18,6.11,RU,1595917705
69,bell ville,-32.63,-62.69,277.04,65,31,3.44,AR,1595917706
70,kapaa,22.08,-159.32,300.15,74,40,8.7,US,1595917706
71,tirano,46.22,10.17,296.48,100,1,1.0,IT,1595917706
72,berlevag,70.86,29.09,294.15,63,0,3.6,NO,1595917707
73,ancud,-41.87,-73.82,275.93,100,90,0.5,CL,1595917707
74,boguchany,58.38,97.45,298.12,37,0,2.19,RU,1595917707
75,bluff,-46.6,168.33,280.93,85,100,1.79,NZ,1595917707
76,mountain home,43.13,-115.69,298.15,29,1,1.92,US,1595917708
77,ahipara,-35.17,173.17,286.4,81,57,3.28,NZ,1595917708
78,kahului,20.89,-156.47,300.15,57,20,9.3,US,1595917708
79,sibu,2.3,111.82,304.15,66,75,2.1,MY,1595917708
80,kodinar,20.79,70.7,303.97,71,19,6.17,IN,1595917709
81,dikson,73.51,80.55,278.85,78,54,7.22,RU,1595917709
82,agirish,61.92,63.02,289.88,43,3,3.13,RU,1595917709
83,ulladulla,-35.35,150.47,289.26,72,75,5.1,AU,1595917709
84,puerto ayora,-0.74,-90.35,291.48,98,92,3.69,EC,1595917710
85,tuktoyaktuk,69.45,-133.04,286.15,93,90,4.6,CA,1595917710
86,grindavik,63.84,-22.43,281.15,93,75,2.1,IS,1595917710
87,port alfred,-33.59,26.89,288.57,42,0,3.51,ZA,1595917711
88,fare,-16.7,-151.02,299.58,80,94,8.24,PF,1595917711
89,kaabong,3.48,34.15,293.3,75,59,1.15,UG,1595917711
90,russkiy,43.01,131.86,300.15,61,75,5.0,RU,1595917712
91,kilindoni,-7.91,39.67,297.91,76,66,8.65,TZ,1595917712
92,tual,-5.67,132.75,299.16,81,20,9.14,ID,1595917712
93,mount isa,-20.73,139.5,297.15,13,0,6.2,AU,1595917712
94,mataura,-46.19,168.86,280.93,85,100,1.79,NZ,1595917713
95,cape town,-33.93,18.42,288.15,87,20,5.7,ZA,1595917313
96,kodiak,57.79,-152.41,287.15,82,1,0.89,US,1595917713
97,east london,-33.02,27.91,286.15,54,0,5.1,ZA,1595917535
98,cabo san lucas,22.89,-109.91,300.93,63,63,4.44,MX,1595917714
99,tiksi,71.69,128.87,278.51,82,100,6.34,RU,1595917714
100,lake havasu city,34.48,-114.32,310.15,11,1,2.1,US,1595917714
101,grinties,47.05,25.87,296.48,80,8,0.66,RO,1595917715
102,te anau,-45.42,167.72,279.77,81,100,0.52,NZ,1595917715
103,saint george,37.1,-113.58,304.15,15,1,3.6,US,1595917715
104,dingle,11.0,122.67,299.87,88,99,1.48,PH,1595917715
105,flin flon,54.77,-101.86,286.13,85,9,1.48,CA,1595917716
106,exu,-7.51,-39.72,289.19,90,16,1.48,BR,1595917716
107,namwala,-15.75,26.44,284.86,62,0,3.09,ZM,1595917716
108,hithadhoo,-0.6,73.08,301.51,78,100,5.09,MV,1595917717
109,lucea,18.45,-78.17,301.15,78,20,2.6,JM,1595917717
110,georgetown,5.41,100.34,305.15,66,20,4.6,MY,1595917717
111,yellowknife,62.46,-114.35,289.82,100,40,1.5,CA,1595917621
112,ilulissat,69.22,-51.1,277.15,93,100,3.6,GL,1595917718
113,atuona,-9.8,-139.03,299.95,70,4,11.14,PF,1595917718
114,xichang,27.9,102.26,301.27,50,89,1.5,CN,1595917718
115,suntar,62.14,117.63,289.87,62,100,3.57,RU,1595917718
116,yeppoon,-23.13,150.73,296.15,20,0,5.1,AU,1595917429
117,abalak,58.13,68.59,290.24,45,19,4.11,RU,1595917719
118,mayor pablo lagerenza,-19.93,-60.77,293.27,56,0,1.01,PY,1595917719
119,vostok,46.49,135.88,296.46,84,35,2.09,RU,1595917720
120,tyukalinsk,55.87,72.2,294.66,51,16,4.19,RU,1595917720
121,aitape,-3.14,142.35,302.57,68,5,3.2,PG,1595917720
122,jamestown,42.1,-79.24,294.82,94,90,3.6,US,1595917720
123,esperance,-33.87,121.9,291.15,55,40,5.7,AU,1595917721
124,ketchikan,55.34,-131.65,287.15,87,90,2.6,US,1595917721
125,port elizabeth,-33.92,25.57,282.15,87,7,1.0,ZA,1595917721
126,taltal,-25.4,-70.48,286.38,68,19,0.84,CL,1595917722
127,salalah,17.02,54.09,300.15,94,90,4.6,OM,1595917722
128,nanortalik,60.14,-45.24,280.38,96,100,1.32,GL,1595917722
129,praia da vitoria,38.73,-27.07,295.15,88,20,2.15,PT,1595917722
130,quelimane,-17.88,36.89,293.15,88,75,1.0,MZ,1595917722
131,campodarsego,45.51,11.92,298.15,73,0,0.5,IT,1595917723
132,bengkulu,-3.8,102.27,302.38,64,100,5.03,ID,1595917723
133,chuy,-33.7,-53.46,280.05,77,100,4.16,UY,1595917723
134,shimoda,34.67,138.95,300.15,94,75,8.2,JP,1595917724
135,hay river,60.82,-115.8,288.15,87,75,2.1,CA,1595917724
136,kavieng,-2.57,150.8,302.11,72,72,3.03,PG,1595917724
137,victoria,22.29,114.16,308.15,50,20,5.7,HK,1595917518
138,moranbah,-22.0,148.05,293.8,24,0,6.07,AU,1595917725
139,opuwo,-18.06,13.84,284.57,44,0,3.75,NA,1595917725
140,fukue,32.69,128.84,300.15,88,75,4.6,JP,1595917725
141,parintins,-2.63,-56.74,296.56,67,2,0.53,BR,1595917726
142,lianzhou,24.78,112.38,307.67,54,89,1.39,CN,1595917726
143,souillac,-20.52,57.52,297.15,73,75,4.1,MU,1595917726
144,pitimbu,-7.47,-34.81,296.69,79,29,6.3,BR,1595917727
145,talnakh,69.49,88.4,289.15,41,13,4.0,RU,1595917727
146,provideniya,64.38,-173.3,285.15,81,40,2.0,RU,1595917727
147,mahebourg,-20.41,57.7,297.15,73,75,4.1,MU,1595917727
148,kaitangata,-46.28,169.85,280.37,76,100,1.34,NZ,1595917728
149,mecca,21.43,39.83,304.29,59,51,5.05,SA,1595917697
150,ponta do sol,32.67,-17.1,294.15,73,20,9.3,PT,1595917728
151,longyearbyen,78.22,15.64,292.15,45,100,7.7,SJ,1595917729
152,lasa,46.62,10.7,286.15,100,1,0.77,IT,1595917729
153,viedma,-40.81,-63.0,277.47,73,44,4.28,AR,1595917729
154,fairbanks,64.84,-147.72,288.15,87,90,1.5,US,1595917621
155,castro,-24.79,-50.01,287.17,80,39,1.78,BR,1595917730
156,manacor,39.57,3.21,299.15,65,0,3.6,ES,1595917730
157,pevek,69.7,170.31,274.79,87,0,5.64,RU,1595917626
158,jodoigne,50.72,4.87,291.48,82,75,5.7,BE,1595917731
159,tasiilaq,65.61,-37.64,276.15,93,57,0.5,GL,1595917731
160,sohag,26.56,31.69,303.15,40,0,3.1,EG,1595917731
161,aksum,14.12,38.72,287.88,91,100,0.53,ET,1595917732
162,necochea,-38.55,-58.74,276.48,95,38,2.24,AR,1595917732
163,vila franca do campo,37.72,-25.43,294.15,88,20,0.79,PT,1595917732
164,waitati,-45.75,170.57,283.71,65,100,1.34,NZ,1595917732
165,chama,47.18,8.46,295.37,73,2,0.86,CH,1595917704
166,beringovskiy,63.05,179.32,289.07,72,0,2.19,RU,1595917733
167,nishihara,26.18,127.76,305.15,74,40,5.7,JP,1595917733
168,itarema,-2.92,-39.92,296.84,86,0,5.63,BR,1595917734
169,sept-iles,50.2,-66.38,289.15,82,75,3.6,CA,1595917696
170,vao,-22.67,167.48,295.12,78,92,10.66,NC,1595917734
171,seoul,37.57,126.98,300.15,74,75,2.67,KR,1595917340
172,umm lajj,25.02,37.27,307.91,41,75,3.38,SA,1595917735
173,northam,51.03,-4.22,288.71,86,37,4.92,GB,1595917735
174,brazzaville,-4.27,15.28,294.15,83,75,2.42,CG,1595917736
175,kayerkan,69.35,87.76,289.15,41,19,4.0,RU,1595917736
176,perelyub,51.87,50.37,295.71,52,13,3.52,RU,1595917736
177,cidreira,-30.18,-50.21,286.72,95,98,5.48,BR,1595917480
178,bereda,43.27,-7.54,291.48,100,100,2.68,ES,1595917737
179,kotka,60.47,26.95,292.59,72,20,3.6,FI,1595917737
180,tutoia,-2.76,-42.27,297.62,77,8,5.15,BR,1595917737
181,amboise,47.41,0.98,291.15,88,90,3.6,FR,1595917737
182,erzin,36.96,36.2,302.04,86,54,1.34,TR,1595917738
183,leningradskiy,69.38,178.42,276.38,77,13,2.61,RU,1595917738
184,darnah,32.77,22.64,298.39,75,3,6.88,LY,1595917739
185,flinders,-34.58,150.86,290.37,74,88,1.79,AU,1595917739
186,ichnya,50.86,32.39,296.16,69,88,2.3,UA,1595917739
187,mar del plata,-38.0,-57.56,277.59,86,52,4.1,AR,1595917739
188,balkanabat,39.51,54.37,307.27,36,0,4.16,TM,1595917740
189,hasaki,35.73,140.83,302.15,79,75,5.7,JP,1595917740
190,lata,40.16,-8.33,292.59,90,99,1.74,PT,1595917740
191,bara,10.37,10.73,295.92,92,74,4.56,NG,1595917740
192,baglung,28.27,83.59,299.73,73,67,1.83,NP,1595917741
193,sao filipe,14.9,-24.5,297.58,77,97,2.58,CV,1595917741
194,padang,-0.95,100.35,300.43,79,98,4.52,ID,1595917641
195,trincomalee,8.57,81.23,298.59,80,100,5.14,LK,1595917741
196,shenzhen,22.55,114.07,308.15,63,20,6.0,CN,1595917570
197,churachandpur,24.33,93.67,299.15,69,75,2.1,IN,1595917742
198,monopoli,40.96,17.29,300.93,50,5,4.1,IT,1595917742
199,marawi,8.0,124.29,302.59,77,41,3.58,PH,1595917742
200,anchorage,61.22,-149.9,289.26,72,1,2.6,US,1595917742
201,tungor,53.38,142.96,296.23,60,72,1.96,RU,1595917743
202,darhan,49.49,105.92,297.88,48,2,3.02,MN,1595917743
203,san policarpo,12.18,125.51,301.35,81,100,3.87,PH,1595917743
204,gladstone,-23.85,151.25,294.15,35,0,4.6,AU,1595917744
205,hefei,31.86,117.28,300.15,100,90,3.0,CN,1595917744
206,kikwit,-5.04,18.82,297.2,39,2,0.74,CD,1595917744
207,los llanos de aridane,28.66,-17.92,295.15,78,75,8.2,ES,1595917744
208,tsuyama,35.05,134.0,303.15,78,75,6.2,JP,1595917745
209,maniitsoq,65.42,-52.9,280.07,95,100,4.86,GL,1595917745
210,bayevo,53.28,80.77,294.68,60,97,2.98,RU,1595917745
211,srednekolymsk,67.45,153.68,288.39,61,84,4.55,RU,1595917746
212,chippewa falls,44.94,-91.39,291.48,82,1,2.6,US,1595917682
213,zhigansk,66.77,123.37,287.11,60,37,8.88,RU,1595917746
214,erenhot,43.65,111.98,302.19,25,0,6.33,CN,1595917746
215,havre-saint-pierre,50.23,-63.6,288.15,93,90,7.2,CA,1595917747
216,lufilufi,-13.87,-171.6,299.15,88,75,1.5,WS,1595917747
217,semey,50.41,80.23,297.15,50,40,5.0,KZ,1595917747
218,ilhabela,-23.78,-45.36,294.84,68,1,2.11,BR,1595917747
219,palmas bellas,9.23,-80.09,298.15,94,100,2.24,PA,1595917748
220,hovd,48.01,91.64,289.27,64,100,4.18,MN,1595917742
221,norman wells,65.28,-126.83,286.15,93,75,1.5,CA,1595917748
222,lebu,-37.62,-73.65,279.37,78,0,5.57,CL,1595917749
223,severo-kurilsk,50.68,156.12,285.69,82,68,7.89,RU,1595917749
224,rabo de peixe,37.8,-25.58,294.15,88,20,0.5,PT,1595917749
225,caravelas,-17.71,-39.25,293.17,88,34,0.11,BR,1595917749
226,zhenlai,45.85,123.3,303.81,48,78,3.97,CN,1595917750
227,samarai,-10.62,150.67,300.43,83,96,3.97,PG,1595917750
228,clyde river,70.47,-68.59,278.15,100,90,4.1,CA,1595917750
229,noyakert,39.83,44.67,303.15,40,4,2.1,AM,1595917751
230,bethel,41.37,-73.41,300.15,65,1,2.6,US,1595917751
231,barrow,71.29,-156.79,276.15,86,90,10.8,US,1595917751
232,belle fourche,44.67,-103.85,292.59,63,1,3.6,US,1595917752
233,portland,45.52,-122.68,299.26,53,1,2.6,US,1595917649
234,hofn,64.25,-15.21,284.0,69,99,2.77,IS,1595917752
235,touros,-5.2,-35.46,295.15,94,75,2.1,BR,1595917623
236,katherine,-14.47,132.27,302.15,9,6,6.2,AU,1595917753
237,la asuncion,11.03,-63.86,304.15,70,68,0.5,VE,1595917753
238,miraflores,19.22,-98.81,290.15,67,90,6.2,MX,1595917753
239,airai,-8.93,125.41,294.19,62,83,1.67,TL,1595917754
240,parana,-31.73,-60.52,280.37,56,33,1.79,AR,1595917754
241,kidal,18.44,1.41,299.94,64,63,6.01,ML,1595917755
242,bandarbeyla,9.49,50.81,304.05,51,0,10.53,SO,1595917755
243,matagami,49.75,-77.63,289.15,100,1,1.64,CA,1595917755
244,maceio,-9.67,-35.74,293.15,94,20,0.5,BR,1595917756
245,wanning,18.8,110.4,305.25,66,7,5.98,CN,1595917756
246,pierre,44.37,-100.35,297.04,56,1,2.1,US,1595917756
247,labuhan,-6.88,112.21,303.52,54,86,3.22,ID,1595917756
248,ostrovnoy,68.05,39.51,290.43,70,15,1.41,RU,1595917757
249,ugoofaaru,5.67,73.0,300.9,78,64,5.65,MV,1595917757
250,rio grande,-32.03,-52.1,283.71,96,100,1.34,BR,1595917572
251,vila velha,-20.33,-40.29,289.15,100,0,1.0,BR,1595917606
252,oktyabrskoye,43.06,44.74,296.15,78,75,2.0,RU,1595917758
253,yerbogachen,61.28,108.01,285.19,92,100,3.71,RU,1595917758
254,lorengau,-2.02,147.27,301.67,73,48,0.8,PG,1595917759
255,auki,-8.77,160.7,301.91,73,65,0.68,SB,1595917759
256,yongan,39.7,113.69,300.86,48,37,2.54,CN,1595917759
257,walvis bay,-22.96,14.51,286.15,82,0,3.1,NA,1595917759
258,kismayo,-0.36,42.55,299.51,77,48,9.39,SO,1595917760
259,sayyan,15.17,44.32,288.65,78,100,1.7,YE,1595917760
260,zemio,5.03,25.14,294.69,95,100,0.64,CF,1595917760
261,lujan,-34.57,-59.1,274.82,72,32,0.89,AR,1595917761
262,cervantes,-39.05,-67.38,275.15,74,0,2.1,AR,1595917761
263,makakilo city,21.35,-158.09,300.15,61,1,3.6,US,1595917761
264,golden,39.76,-105.22,294.26,60,1,2.6,US,1595917761
265,annau,37.89,58.52,308.15,39,0,5.1,TM,1595917761
266,oktyabrskiy,54.48,53.47,293.23,69,0,2.81,RU,1595917762
267,rawson,-43.3,-65.1,278.17,68,0,6.15,AR,1595917762
268,fort frances,48.6,-93.4,289.26,77,1,2.1,CA,1595917762
269,sabzevar,36.21,57.68,306.61,18,0,2.86,IR,1595917763
270,khatanga,71.97,102.5,288.52,46,0,1.25,RU,1595917763
271,birao,10.28,22.79,295.57,93,99,3.09,CF,1595917763
272,margate,51.38,1.39,289.26,79,16,0.89,GB,1595917763
273,olafsvik,64.89,-23.71,282.31,82,89,2.6,IS,1595917764
274,snezhnogorsk,69.19,33.25,289.15,87,0,1.0,RU,1595917764
275,basoko,1.24,23.62,296.08,89,52,0.71,CD,1595917764
276,starachowice,51.04,21.07,296.48,1,100,2.7,PL,1595917765
277,haimen,23.19,116.61,309.15,53,40,5.0,CN,1595917765
278,raudeberg,61.99,5.14,291.15,59,75,7.7,NO,1595917765
279,msanga,-6.05,36.03,289.15,87,20,3.1,TZ,1595917766
280,adrar,20.5,-10.07,304.53,39,19,8.48,MR,1595917766
281,tayu,-6.54,111.05,304.64,47,4,3.8,ID,1595917766
282,aripuana,-9.17,-60.63,295.53,58,99,0.56,BR,1595917766
283,karymskoye,51.62,114.35,295.54,82,82,4.53,RU,1595917767
284,abha,18.22,42.51,290.15,82,75,4.6,SA,1595917767
285,caohe,30.23,115.43,299.82,90,100,1.97,CN,1595917767
286,road town,18.42,-64.62,301.48,86,11,9.83,VG,1595917679
287,namatanai,-3.67,152.43,301.71,73,10,2.8,PG,1595917767
288,meulaboh,4.14,96.13,297.25,95,100,2.07,ID,1595917768
289,iisalmi,63.56,27.19,291.15,77,95,2.1,FI,1595917678
290,helena,46.59,-112.04,299.15,31,75,5.7,US,1595917620
291,roebourne,-20.78,117.13,299.36,23,21,5.96,AU,1595917769
292,pisco,-13.7,-76.22,288.15,82,75,2.6,PE,1595917769
293,casambalangan,18.38,122.13,303.2,70,100,3.32,PH,1595917770
294,gibraltar,36.14,-5.35,296.15,88,1,3.1,GI,1595917720
295,jingdezhen,29.29,117.21,304.81,73,90,1.46,CN,1595917770
296,tokur,53.13,132.9,299.18,68,89,2.3,RU,1595917771
297,sitka,57.05,-135.33,286.15,87,75,0.25,US,1595917771
298,odate,40.27,140.57,295.15,88,75,2.1,JP,1595917771
299,manggar,-2.88,108.27,301.86,70,58,7.7,ID,1595917771
300,noumea,-22.28,166.46,298.15,61,75,3.6,NC,1595917495
301,waipawa,-41.41,175.52,284.26,71,79,3.6,NZ,1595917772
302,corleone,37.81,13.3,302.04,38,0,2.24,IT,1595917772
303,coruripe,-10.13,-36.18,295.63,83,4,4.33,BR,1595917757
304,port lincoln,-34.73,135.87,287.71,61,96,2.87,AU,1595917772
305,troitskoye,52.98,84.68,298.06,42,43,1.79,RU,1595917578
306,concepcion del oro,24.63,-101.42,287.44,96,100,4.12,MX,1595917773
307,carnarvon,-24.87,113.63,296.15,64,0,8.7,AU,1595917773
308,kutum,14.2,24.67,297.21,65,17,9.81,SD,1595917774
309,grand gaube,-20.01,57.66,297.04,69,13,2.68,MU,1595917774
310,aksha,50.28,113.29,290.06,92,100,4.09,RU,1595917774
311,monrovia,6.3,-10.8,297.15,94,75,3.81,LR,1595917669
312,chokurdakh,70.63,147.92,283.29,57,100,3.5,RU,1595917775
313,coihaique,-45.58,-72.07,276.15,74,20,2.1,CL,1595917775
314,la victoria,10.22,-67.33,293.71,88,37,0.67,VE,1595917776
315,huayucachi,-12.13,-75.23,281.38,73,21,0.51,PE,1595917776
316,college,64.86,-147.8,288.15,82,90,3.1,US,1595917776
317,jalu,29.03,21.55,298.59,53,0,4.2,LY,1595917777
318,kavaratti,10.57,72.64,303.15,74,75,3.1,IN,1595917777
319,novocheremshansk,54.36,50.17,295.37,55,0,1.44,RU,1595917777
320,price,39.6,-110.81,291.15,68,1,2.6,US,1595917778
321,jega,12.22,4.38,298.49,82,96,3.52,NG,1595917778
322,coquimbo,-29.95,-71.34,283.15,87,3,3.1,CL,1595917778
323,deniliquin,-35.53,144.97,289.26,65,10,1.79,AU,1595917779
324,khorinsk,52.17,109.77,294.42,59,100,4.47,RU,1595917780
325,sao joao da barra,-21.64,-41.05,294.03,82,0,6.96,BR,1595917780
326,okha,53.57,142.95,294.17,66,80,2.36,RU,1595917780
327,laurel,39.1,-76.85,302.04,65,1,1.5,US,1595917567
328,port hardy,50.7,-127.42,288.15,82,75,2.1,CA,1595917781
329,marsh harbour,26.54,-77.06,300.74,79,41,3.2,BS,1595917781
330,norsup,-16.07,167.38,298.15,94,75,0.5,VU,1595917782
331,karratha,-20.74,116.85,300.0,20,14,6.72,AU,1595917782
332,japura,-0.32,102.35,306.22,45,95,2.21,ID,1595917782
333,doha,25.29,51.53,310.93,63,20,7.2,QA,1595917516
334,vila,42.03,-8.16,292.15,100,75,1.5,PT,1595917783
335,desaguadero,-16.57,-69.04,273.98,72,0,1.8,PE,1595917783
336,rengo,-34.42,-70.87,275.15,93,2,2.1,CL,1595917783
337,saldanha,-33.01,17.94,284.15,81,0,2.6,ZA,1595917783
338,isangel,-19.55,169.27,298.15,73,75,3.1,VU,1595917549
339,sinnamary,5.38,-52.95,297.86,86,75,2.33,GF,1595917784
340,mitsamiouli,-11.38,43.28,300.15,54,75,4.1,KM,1595917784
341,boa vista,2.82,-60.67,299.15,83,63,1.0,BR,1595917510
342,koungheul,13.98,-14.8,297.74,91,100,3.17,SN,1595917785
343,redmond,47.67,-122.12,297.59,77,0,0.84,US,1595917785
344,alofi,-19.06,-169.92,295.15,78,33,4.1,NU,1595917785
345,novoagansk,61.94,76.66,289.03,64,41,4.48,RU,1595917786
346,kieta,-6.22,155.63,301.72,69,58,0.98,PG,1595917786
347,pedasi,7.53,-80.03,299.39,83,67,2.46,PA,1595917786
348,kitimat,54.05,-128.65,289.26,80,85,1.24,CA,1595917786
349,kropotkin,45.44,40.58,297.98,59,39,4.22,RU,1595917787
350,pak phanang,8.35,100.2,308.15,59,40,2.1,TH,1595917787
351,pasighat,28.07,95.33,299.91,83,100,0.77,IN,1595917787
352,loiza,18.43,-65.88,300.15,94,40,5.1,PR,1595917788
353,laguna,38.42,-121.42,293.71,59,1,2.1,US,1595917788
354,freeport,40.66,-73.58,302.59,62,1,4.1,US,1595917788
355,tiznit,29.58,-9.5,297.11,41,5,0.63,MA,1595917789
356,carbonia,39.17,8.52,299.82,64,0,2.1,IT,1595917789
357,sola,-13.88,167.55,301.15,78,75,9.76,VU,1595917790
358,ust-ilimsk,58.0,102.66,297.56,46,69,1.81,RU,1595917790
359,najran,17.49,44.13,293.15,94,75,5.1,SA,1595917790
360,ribeira grande,38.52,-28.7,295.84,89,5,3.06,PT,1595917790
361,methoni,36.82,21.7,302.59,51,0,2.1,GR,1595917791
362,dukat,62.55,155.55,297.03,31,3,6.4,RU,1595917791
363,lima,-12.04,-77.03,288.15,87,90,1.5,PE,1595916987
364,la ronge,55.1,-105.28,291.15,68,5,1.5,CA,1595917792
365,sabrum,23.0,91.73,301.96,88,100,2.7,IN,1595917792
366,petropavlovsk-kamchatskiy,53.05,158.65,295.15,60,59,5.0,RU,1595917793
367,peniche,39.36,-9.38,292.59,95,57,3.13,PT,1595917793
368,constitucion,-35.33,-72.42,279.23,68,0,4.36,CL,1595917793
369,hirara,24.8,125.28,305.15,62,40,4.1,JP,1595917794
370,saint-louis,16.33,-15.0,301.25,68,67,5.07,SN,1595917794
371,kulevcha,46.03,29.94,300.82,42,0,6.83,UA,1595917795
372,formosa do rio preto,-11.05,-45.19,291.32,84,63,2.78,BR,1595917795
373,jardim,-21.48,-56.14,292.63,56,0,0.41,BR,1595917795
374,tahe,52.33,124.73,303.96,40,35,3.44,CN,1595917795
375,lichtenburg,-26.15,26.16,279.48,83,0,4.46,ZA,1595917796
376,kailua,21.4,-157.74,300.15,61,40,7.2,US,1595917796
377,upernavik,72.79,-56.15,279.56,88,97,0.82,GL,1595917796
378,sur,22.57,59.53,306.98,53,0,4.35,OM,1595917796
379,kyshtovka,56.55,76.63,292.62,69,13,0.92,RU,1595917797
380,alyangula,-13.85,136.42,297.15,47,3,5.1,AU,1595917797
381,muros,42.78,-9.06,292.59,83,40,2.24,ES,1595917797
382,xuddur,4.12,43.89,298.65,64,97,10.46,SO,1595917797
383,praia,14.92,-23.51,298.15,78,40,3.1,CV,1595917798
384,katsuura,35.13,140.3,303.15,87,100,2.68,JP,1595917798
385,muli,2.92,73.57,301.34,78,76,5.93,MV,1595917798
386,darfield,53.53,-1.38,286.48,83,32,0.89,GB,1595917799
387,mapiripan,2.89,-72.13,295.89,93,100,0.73,CO,1595917799
388,muisne,0.6,-80.03,296.02,89,100,3.25,EC,1595917799
389,lavrentiya,65.58,-171.0,281.68,79,94,5.33,RU,1595917799
390,ballina,-28.87,153.57,293.15,49,4,5.1,AU,1595917800
391,honiara,-9.43,159.95,304.15,66,40,5.1,SB,1595917800
392,yamada,39.47,141.95,292.53,94,100,2.4,JP,1595917800
393,puri,19.8,85.85,308.15,67,40,3.6,IN,1595917800
394,iquique,-20.22,-70.14,288.15,67,90,1.0,CL,1595917801
395,sumbe,-11.21,13.84,294.43,80,78,1.78,AO,1595917801
396,ventspils,57.39,21.56,288.15,100,90,2.1,LV,1595917802
397,anadyr,64.75,177.48,288.15,77,75,4.0,RU,1595917803
398,aswan,24.09,32.91,310.2,17,0,3.76,EG,1595917803
399,hervey bay,-25.3,152.85,293.15,53,0,1.34,AU,1595917803
400,cockburn town,21.46,-71.14,300.64,77,2,7.51,TC,1595917804
401,sambava,-14.27,50.17,297.39,75,98,6.28,MG,1595917805
402,dzerzhinskoye,56.83,95.23,296.89,49,96,1.98,RU,1595917805
403,andenes,69.31,16.12,288.15,82,0,2.1,NO,1595917805
404,nemuro,43.32,145.57,289.15,87,75,2.6,JP,1595917806
405,george town,5.41,100.34,305.15,66,20,4.6,MY,1595917708
406,evensk,61.95,159.23,285.05,87,99,2.92,RU,1595917806
407,conde,-7.26,-34.91,294.51,87,6,4.92,BR,1595917806
408,dunedin,-45.87,170.5,283.15,64,100,1.79,NZ,1595917807
409,reforma,18.1,-91.02,296.81,93,100,2.56,MX,1595917807
410,biak,-0.91,122.88,299.4,79,98,3.83,ID,1595917807
411,mehamn,71.04,27.85,292.15,59,0,3.1,NO,1595917808
412,kruisfontein,-34.0,24.73,284.82,75,0,0.45,ZA,1595917808
413,thunder bay,48.4,-89.32,290.37,87,20,3.1,CA,1595917808
414,broome,42.25,-75.83,296.48,88,1,1.5,US,1595917809
415,mount gambier,-37.83,140.77,285.15,81,100,3.1,AU,1595917809
416,tura,25.52,90.22,302.22,81,100,2.9,IN,1595917809
417,cortland,42.6,-76.08,296.48,88,1,2.1,US,1595917810
418,galveston,29.37,-94.97,301.15,88,1,3.1,US,1595917810
419,gizo,-8.1,156.84,301.43,77,15,2.33,SB,1595917811
420,denpasar,-8.65,115.22,301.15,74,40,8.7,ID,1595917511
421,blagoyevo,63.37,47.92,296.37,54,15,2.95,RU,1595917811
422,half moon bay,37.46,-122.43,288.71,93,90,1.5,US,1595917811
423,kamenka,51.32,42.77,298.71,39,0,3.74,RU,1595917812
424,faanui,-16.48,-151.75,299.36,81,99,7.1,PF,1595917812
425,beloha,-25.17,45.05,293.87,63,38,5.05,MG,1595917813
426,grao mogol,-16.56,-42.89,285.62,100,29,1.33,BR,1595917813
427,deogarh,21.53,84.73,309.05,47,98,0.54,IN,1595917813
428,oussouye,12.48,-16.55,298.15,100,40,1.0,SN,1595917813
429,galle,6.04,80.22,300.77,81,100,5.67,LK,1595917814
430,ordynskoye,54.37,81.9,295.26,55,23,1.48,RU,1595917814
431,zhanaozen,43.3,52.8,304.97,14,0,6.02,KZ,1595917814
432,alice springs,-23.7,133.88,294.15,22,0,4.1,AU,1595917540
433,revda,56.8,59.93,293.15,52,20,5.0,RU,1595917815
434,lompoc,34.64,-120.46,287.15,87,90,1.5,US,1595917649
435,kempele,64.91,25.5,291.15,77,100,4.1,FI,1595917815
436,misratah,32.38,15.09,299.92,59,0,2.48,LY,1595917816
437,kenai,60.55,-151.26,288.15,71,1,7.2,US,1595917816
438,anton lizardo,19.05,-95.98,297.59,78,100,6.26,MX,1595917817
439,clemmons,36.02,-80.38,297.04,88,21,1.49,US,1595917522
440,batagay-alyta,67.8,130.41,287.39,52,99,3.78,RU,1595917817
441,palora,-1.7,-77.93,289.94,95,2,1.13,EC,1595917817
442,chimbote,-9.09,-78.58,287.84,89,84,2.46,PE,1595917818
443,bridlington,54.08,-0.19,286.48,82,0,7.2,GB,1595917818
444,oistins,13.07,-59.53,301.15,78,20,6.7,BB,1595917702
445,faya,18.39,42.45,290.15,82,75,4.6,SA,1595917819
446,alta floresta,-9.88,-56.09,293.15,77,64,1.58,BR,1595917819
447,zeya,53.75,127.27,305.29,39,0,2.66,RU,1595917820
448,barquisimeto,10.07,-69.32,290.15,100,79,2.6,VE,1595917820
449,shahdadkot,27.85,67.91,317.19,23,0,2.66,PK,1595917820
450,santa rita do passa quatro,-21.71,-47.48,288.44,80,0,0.67,BR,1595917821
451,namibe,-15.2,12.15,293.86,62,0,2.42,AO,1595917822
452,saint-francois,46.42,3.91,294.15,64,44,1.5,FR,1595917822
453,chara,56.91,118.26,302.61,39,25,6.53,RU,1595917822
454,charlottesville,38.03,-78.48,300.15,61,1,1.5,US,1595917823
455,alekseyevsk,57.84,108.35,296.56,68,100,2.03,RU,1595917823
456,tongren,27.72,109.19,305.61,54,9,1.81,CN,1595917534
457,ipixuna,-1.76,-48.8,298.15,88,0,4.6,BR,1595917824
458,tema,5.67,-0.02,297.15,88,75,4.6,GH,1595917824
459,durgapur,23.48,87.32,309.26,71,98,3.06,IN,1595917825
460,geraldton,-28.77,114.6,294.15,56,40,3.1,AU,1595917825
461,beinamar,8.67,15.38,297.2,89,36,2.22,TD,1595917826
462,leh,34.17,77.58,293.9,24,2,2.97,IN,1595917826
463,san esteban,15.2,-85.75,294.41,90,49,0.4,HN,1595917826
464,port macquarie,-31.43,152.92,291.48,70,100,4.04,AU,1595917826
465,tweed,44.48,-77.32,295.93,89,100,0.89,CA,1595917827
466,poole,50.72,-2.0,288.15,82,75,4.1,GB,1595917803
467,mufumbwe,-13.68,24.8,289.62,49,0,4.15,ZM,1595917827
468,esmeraldas,-19.76,-44.31,289.15,87,0,2.1,BR,1595917827
469,bonavista,48.65,-53.11,285.97,90,93,3.16,CA,1595917828
470,strelka,58.07,93.03,297.18,43,89,1.14,RU,1595917828
471,kastamonu,41.5,33.67,290.15,100,40,1.5,TR,1595917828
472,natal,-5.79,-35.21,295.15,88,40,2.6,BR,1595917646
473,riyadh,24.69,46.72,314.15,21,6,1.0,SA,1595917747
474,coromandel,-18.47,-47.2,288.17,74,3,2.88,BR,1595917829
475,sao miguel do guama,-1.63,-47.48,293.4,93,0,0.61,BR,1595917829
476,urengoy,65.97,78.37,290.61,45,93,6.8,RU,1595917830
477,aklavik,68.22,-135.01,288.15,72,90,2.1,CA,1595917830
478,kosh-agach,50.0,88.67,291.09,40,18,1.87,RU,1595917831
479,pathalgaon,22.57,83.47,304.1,59,100,2.07,IN,1595917831
480,esmeralda,21.85,-78.12,298.15,100,6,5.1,CU,1595917831
481,bubaque,11.28,-15.83,299.21,85,100,6.96,GW,1595917832
482,pochutla,15.74,-96.47,297.59,91,100,1.21,MX,1595917832
483,tautira,-17.73,-149.15,299.15,69,40,1.5,PF,1595917833
484,zuhres,48.01,38.26,297.71,51,100,6.81,UA,1595917833
485,yumen,40.28,97.2,309.13,11,64,5.7,CN,1595917833
486,prachuap khiri khan,11.82,99.78,303.05,75,99,2.53,TH,1595917829
487,hyeres,43.12,6.12,296.48,83,1,1.65,FR,1595917536
488,kungurtug,50.6,97.52,289.29,72,100,1.44,RU,1595917834
489,suez,29.97,32.53,302.24,50,0,4.81,EG,1595917834
490,sabang,5.89,95.32,301.5,76,100,8.12,ID,1595917834
491,brumado,-14.2,-41.67,292.23,81,78,2.52,BR,1595917537
492,aksarka,66.56,67.8,286.05,60,100,5.81,RU,1595917835
493,buraydah,26.33,43.98,308.15,34,1,4.6,SA,1595917835
494,rawlins,41.79,-107.24,293.15,40,1,4.6,US,1595917835
495,dzhebariki-khaya,62.22,135.8,292.93,76,100,1.36,RU,1595917836
496,cascais,38.7,-9.42,294.26,88,75,4.1,PT,1595917836
497,bathsheba,13.22,-59.52,301.15,78,20,6.7,BB,1595917836
498,pomerode,-26.74,-49.18,289.26,13,0,0.78,BR,1595917836
499,brae,60.4,-1.35,286.15,100,75,5.7,GB,1595917837
500,san vicente,-26.62,-54.13,287.81,100,59,0.79,AR,1595917837
501,aktau,43.65,51.2,305.15,13,0,9.0,KZ,1595917837
502,prince rupert,54.32,-130.32,284.15,93,1,0.48,CA,1595917636
503,zyryanka,65.75,150.85,292.42,54,100,7.26,RU,1595917838
504,waynesboro,38.07,-78.89,298.15,73,1,3.1,US,1595917839
505,husavik,66.04,-17.34,280.15,81,90,2.6,IS,1595917839
506,avera,33.19,-82.53,298.15,94,40,2.36,US,1595917839
507,barra patuca,15.8,-84.28,300.17,84,43,5.43,HN,1595917840
508,hobyo,5.35,48.53,301.92,64,75,10.17,SO,1595917840
509,yarmouth,41.71,-70.23,300.37,74,1,4.1,US,1595917787
510,santa barbara,34.42,-119.7,289.15,82,1,4.6,US,1595917841
511,lagoa,39.05,-27.98,295.6,90,0,2.65,PT,1595917841
512,maputo,-25.97,32.59,290.37,87,20,3.1,MZ,1595917842
513,cape canaveral,28.41,-80.6,297.59,88,75,2.6,US,1595917842
514,gat,31.61,34.76,302.04,73,0,3.19,IL,1595917842
515,khatima,28.92,79.97,301.15,88,90,1.0,IN,1595917843
516,langsa,4.47,97.97,301.84,72,100,1.84,ID,1595917843
517,polunochnoye,60.87,60.42,287.48,69,100,1.62,RU,1595917843
518,sao mateus,-18.72,-39.86,291.36,91,96,0.8,BR,1595917843
519,miyang,24.4,103.44,301.71,42,30,1.86,CN,1595917844
520,chachapoyas,-6.23,-77.87,284.92,87,86,0.67,PE,1595917844
521,tarko-sale,64.92,77.78,292.04,43,100,0.89,RU,1595917844
522,sitrah,26.15,50.62,310.15,56,6,4.1,BH,1595917845
523,gawler,-34.6,138.73,284.82,78,100,1.79,AU,1595917845
524,bontang,0.13,117.5,302.14,70,28,2.75,ID,1595917845
525,bukene,-4.23,32.88,295.99,45,0,4.83,TZ,1595917845
526,dalby,-27.18,151.27,289.15,51,40,6.7,AU,1595917846
527,chapais,49.78,-74.85,292.15,93,90,1.5,CA,1595917847
528,bayburt,40.26,40.23,302.25,23,8,2.25,TR,1595917847
529,nioro,13.35,-15.75,297.57,94,100,1.69,GM,1595917847
530,porto novo,6.5,2.6,297.15,94,40,4.6,BJ,1595917848
531,kashira,54.84,38.17,294.15,73,20,1.0,RU,1595917848
532,batticaloa,7.71,81.69,297.93,84,100,4.33,LK,1595917849
533,leshan,29.56,103.76,308.83,46,2,1.9,CN,1595917849
534,urumqi,43.8,87.6,299.15,36,26,3.0,CN,1595917566
535,seddon,-37.81,144.89,286.48,76,75,6.2,AU,1595917850
536,shingu,33.73,135.98,301.15,88,75,3.1,JP,1595917850
537,pathein,16.78,94.73,305.86,59,100,3.73,MM,1595917850
538,mnogovershinnyy,53.94,139.92,298.6,54,55,2.84,RU,1595917851
539,pelym,61.01,62.0,291.36,45,96,2.38,RU,1595917851
540,waitara,-38.92,174.25,285.37,72,100,1.79,NZ,1595917852
541,salinopolis,-0.61,-47.36,298.16,85,1,3.3,BR,1595917852
542,khandyga,62.67,135.6,290.7,91,100,0.92,RU,1595917852
543,swinoujscie,53.91,14.25,295.15,60,100,4.6,PL,1595917853
544,egvekinot,66.32,-179.17,282.62,67,60,2.54,RU,1595917853
545,camacha,33.08,-16.33,294.15,73,40,5.1,PT,1595917854
546,lozova,48.89,36.32,298.02,46,67,6.29,UA,1595917854
547,bayji,34.93,43.49,319.91,8,0,3.12,IQ,1595917854
548,ust-kuyga,70.02,135.6,281.73,69,100,5.17,RU,1595917855
